,City ID,City name,City longitude,City latitude,Max Temperature,Humidity,Cloud coverage,Wind Speed,City Country,City Datetime,Temperature
1,2374583,Bubaque,-15.83,11.28,,50,0,5.53,GW,1577671597.0,299.78
2,1120879,Sharan,68.78,33.15,,37,0,1.22,AF,1577671639.0,270.25
3,1273574,Vaini,74.49,15.34,,93,5,2.9,IN,1577671577.0,290.15
4,1282256,Hithadhoo,73.08,-0.6,,75,100,3.85,MV,1577671604.0,301.45
5,527220,Mga,31.06,59.76,,90,90,4,RU,1577671640.0,273.46
6,4407665,Kodiak,-94.76,39.95,,69,90,6.7,US,1577671640.0,273.13
7,4020109,Atuona,-139.03,-9.8,,74,4,5.73,PF,1577671573.0,300.22
8,3609418,San Cristobal,-86.92,14.68,,92,85,1.43,HN,1577671640.0,291.4
9,3831208,Qaanaaq,-69.36,77.48,,89,100,0.6,GL,1577671586.0,249.66
10,2158744,Margate,147.26,-43.03,,28,33,2.68,AU,1577671641.0,309.26
11,1733782,Victoria,115.24,5.28,,74,75,1.5,BN,1577671597.0,302.62
12,5855927,Hilo,-155.08,19.71,,54,40,3.6,US,1577671641.0,294.74
13,1789289,Dayong,118.29,25.02,,100,75,1,CN,1577671641.0,290.15
14,3378644,Georgetown,-58.16,6.8,,94,100,2.1,GY,1577671457.0,297.15
15,2126123,Chokurdakh,147.9,70.62,,84,65,3.16,RU,1577671584.0,238.48
16,2155415,New Norfolk,147.06,-42.78,,18,28,2.24,AU,1577671581.0,308.71
17,3652764,Puerto Ayora,-90.35,-0.74,,88,57,1.34,EC,1577671596.0,297.04
18,4030556,Rikitea,-134.97,-23.12,,78,100,2.57,PF,1577671578.0,298.38
19,3453439,Ponta do Sol,-46,-20.63,,90,14,1.64,BR,1577671643.0,291.61
20,3533462,Acapulco,-99.88,16.86,,78,75,3.1,MX,1577671402.0,301.15
21,2069194,Jamestown,138.6,-33.21,,14,68,9.61,AU,1577671581.0,312.56
22,3443061,Chuy,-53.46,-33.69,,93,51,2.12,UY,1577671595.0,294.48
23,964432,Port Alfred,26.89,-33.59,,96,10,5.08,ZA,1577671601.0,292.59
24,187896,Mandera,41.86,3.94,,27,28,3.13,ET,1577671644.0,289.82
25,1650233,Banjar,108.54,-7.37,,63,100,1.38,ID,1577671644.0,303.76
26,2253354,Dakar,-17.45,14.69,,23,89,5.1,SN,1577671629.0,297.15
27,3833859,Barrow,-60.23,-38.31,,90,100,4.55,AR,1577671645.0,293.0
28,1789065,Ankang,108.99,32.73,,60,0,1.37,CN,1577671645.0,281.11
29,3874787,Punta Arenas,-70.91,-53.16,,47,8,5.1,CL,1577671574.0,285.0
30,6201424,Mataura,168.86,-46.19,,78,91,7.6,NZ,1577671579.0,287.59
31,2013465,Verkhoyansk,133.39,67.55,,75,0,1.21,RU,1577671646.0,238.99
32,2643097,Mansfield,-1.2,53.14,,100,90,4.1,GB,1577671583.0,277.88
33,2456917,Goundam,-3.66,16.42,,11,0,4.91,ML,1577671615.0,291.24
34,1273294,Dwarka,77.04,28.58,,100,90,0.66,IN,1577671646.0,282.08
35,3437029,San Patricio,-56.83,-26.98,,52,0,2.38,PY,1577671610.0,300.76
36,4033557,Tautira,-149.15,-17.73,,70,40,7.7,PF,1577671625.0,303.15
37,3517970,Pochutla,-96.47,15.74,,78,20,4.1,MX,1577671647.0,299.35
38,2175403,Bluff,149.07,-23.58,,42,25,5.56,AU,1577671591.0,304.24
39,3418910,Upernavik,-56.15,72.79,,78,100,6.45,GL,1577671647.0,263.27
40,4035715,Avarua,-159.78,-21.21,,78,100,1,CK,1577671576.0,298.15
41,470905,Vuktyl,57.31,63.86,,80,100,7.68,RU,1577671648.0,258.02
42,2075265,Busselton,115.35,-33.64,,26,92,4.06,AU,1577671598.0,293.99
43,3359638,Walvis Bay,14.51,-22.95,,87,29,3.6,NA,1577671648.0,289.2
44,344979,Lebu,38.73,8.96,,88,90,0.28,ET,1577671574.0,284.92
45,3863379,Mar del Plata,-67.52,-46.43,,62,59,2.56,AR,1577671393.0,289.13
46,286621,Salalah,54.1,17.01,,73,41,4.6,OM,1577671607.0,297.15
47,3833367,Ushuaia,-68.31,-54.81,,57,11,3.1,AR,1577671547.0,284.15
48,3356832,Henties Bay,14.28,-22.12,,93,95,0.45,NA,1577671591.0,289.26
49,3691954,Sechura,-80.82,-5.56,,87,99,3.75,PE,1577671649.0,294.95
50,2017155,Saskylakh,114.09,71.97,,92,90,2.4,RU,1577671577.0,239.51
51,1504382,Kargasok,80.87,59.06,,99,0,1.49,RU,1577671650.0,246.68
52,2450173,Taoudenni,-3.98,22.68,,23,0,5.2,ML,1577671650.0,287.89
53,4031574,Provideniya,-173.23,64.42,,60,0,7,RU,1577671650.0,260.15
54,3529654,Dzilam Gonzalez,-88.93,21.28,,84,62,5.35,MX,1577671650.0,298.62
55,5969785,Hamilton,-79.87,43.26,,100,90,12.3,CA,1577671389.0,274.81
56,128234,Kerman,57.06,30.29,,63,0,2.1,IR,1577671651.0,271.15
57,3542167,Rio Cauto,-76.92,20.56,,88,75,5.1,CU,1577671651.0,298.15
58,6185377,Yellowknife,-114.38,62.45,,75,75,2.73,CA,1577671456.0,245.3
59,1160571,Khash,61.21,28.22,,67,0,1.6,IR,1577671651.0,279.11
60,6165406,Thompson,-97.86,55.74,,84,20,1,CA,1577671585.0,255.15
61,5924351,Clyde River,-68.59,70.47,,61,20,4.1,CA,1577671606.0,262.15
62,3127461,Burgos,-3.7,42.34,,86,36,0.5,ES,1577671652.0,274.45
63,4011743,Constitucion,-104.67,23.99,,26,5,5.7,MX,1577671652.0,286.15
64,2012530,Zhigansk,123.37,66.77,,94,100,9.11,RU,1577671653.0,240.67
65,4720039,Port Arthur,-93.93,29.9,,66,1,4.1,US,1577671653.0,286.16
66,3453315,Pocone,-56.62,-16.26,,69,87,1.51,BR,1577671653.0,299.81
67,2122090,Pevek,170.27,69.7,,98,100,3.35,RU,1577671610.0,241.79
68,5882953,Aklavik,-135.01,68.22,,68,75,3.1,CA,1577671604.0,246.15
69,5293183,Drexel Heights,-111.03,32.14,,52,1,2.6,US,1577671654.0,277.92
70,6540127,Olbia,9.49,40.92,,52,0,4.1,IT,1577671627.0,278.15
71,2618795,Klaksvik,-6.59,62.23,,81,82,12.9,FO,1577671654.0,280.15
72,3374210,Sao Filipe,-24.5,14.9,,67,0,5.48,CV,1577671654.0,295.09
73,2729907,Longyearbyen,15.63,78.22,,60,0,9.8,NO,1577671624.0,261.15
74,490040,Sovetskiy,48.47,56.76,,92,0,2.76,RU,1577671655.0,256.31
75,262462,Saint George,22.34,39.45,,48,40,10.3,GR,1577671655.0,277.68
76,3492908,Santo Domingo,-69.94,18.48,,94,20,2.1,DO,1577671470.0,296.79
77,2162737,Ingham,146.16,-18.65,,40,16,3.47,AU,1577671655.0,305.25
78,3466980,Caravelas,-39.27,-17.73,,88,2,1.04,BR,1577671625.0,294.24
79,515873,Oktyabrskiy,37.97,55.61,,86,90,4,RU,1577671656.0,269.65
80,2065594,Mount Isa,139.49,-20.73,,17,38,2.6,AU,1577671656.0,311.15
81,390054,Baft,56.61,29.23,,54,0,1.2,IR,1577671656.0,274.75
82,2094342,Kavieng,150.8,-2.57,,74,39,5.98,PG,1577671576.0,302.26
83,964712,Plettenberg Bay,23.37,-34.05,,94,77,1.76,ZA,1577671656.0,292.29
84,3424607,Tasiilaq,-37.64,65.61,,53,83,2.6,GL,1577671592.0,268.15
85,4034188,Moerai,-151.33,-22.43,,85,100,1.92,PF,1577671657.0,297.85
86,172515,Abu Samrah,37.18,35.3,,79,0,3.03,SY,1577671657.0,281.11
87,2122614,Ekhabi,142.97,53.51,,82,51,3.62,RU,1577671657.0,254.07
88,2973882,Soyaux,0.19,45.64,,100,0,0.5,FR,1577671657.0,273.48
89,2449893,Tessalit,1.01,20.2,,17,0,4.62,ML,1577671609.0,287.44
90,304183,Bayir,28.22,37.27,,75,75,4.6,TR,1577671658.0,281.15
91,2249901,Gat,-16.54,14.69,,23,100,5.1,SN,1577671658.0,297.15
92,3372707,Ribeira Grande,-28.7,38.52,,69,79,3.5,PT,1577671658.0,285.82
93,2377457,Nouadhibou,-17.03,20.93,,42,100,5.1,MR,1577671610.0,292.15
94,1861280,Itoman,127.67,26.12,,88,75,7.7,JP,1577671659.0,295.03
95,1264976,Leh,77.58,34.16,,14,27,1.08,IN,1577671589.0,257.13
96,1524298,Aksu,76.93,52.04,,100,75,3,KZ,1577671659.0,268.15
97,3440777,Rocha,-54.34,-34.48,,95,67,2.2,UY,1577671586.0,291.79
98,1507390,Dikson,80.55,73.51,,92,100,13.89,RU,1577671589.0,254.63
99,2127202,Anadyr,177.51,64.73,,74,40,6,RU,1577671659.0,241.32
100,2234794,Banyo,11.81,6.75,,40,0,1.05,CM,1577671660.0,289.71
101,140918,Behshahr,53.54,36.69,,93,0,1,IR,1577671660.0,278.15
102,3359736,Vredendal,18.49,-31.68,,90,0,1.15,ZA,1577671660.0,288.79
103,2110227,Butaritari,172.79,3.07,,76,100,5.3,KI,1577671585.0,301.87
104,2208248,Kaitangata,169.85,-46.28,,71,72,7.15,NZ,1577671661.0,287.59
105,6148373,Sioux Lookout,-91.92,50.1,,85,90,4.1,CA,1577671419.0,264.15
106,3389822,Salinopolis,-47.36,-0.61,,78,100,6.85,BR,1577671661.0,301.33
107,2215163,Masallatah,14,32.62,,79,45,3.64,LY,1577671661.0,281.18
108,2035601,Nenjiang,125.23,49.17,,84,0,1.51,CN,1577671661.0,247.91
109,6316343,Alta Floresta,-56.08,-9.87,,94,100,0.8,BR,1577671662.0,296.05
110,3664980,Boa Vista,-60.67,2.82,,62,75,4.6,BR,1577671577.0,302.15
111,3514843,Emilio Carranza,-96.61,19.97,,83,100,2,MX,1577671662.0,297.47
112,1014034,Carnarvon,22.13,-30.97,,73,0,3.85,ZA,1577671599.0,290.11
113,2969612,Vertou,-1.47,47.17,,59,32,1,FR,1577671663.0,273.64
114,5848280,Kapaa,-159.32,22.08,,69,20,4.1,US,1577671581.0,300.43
115,2163355,Hobart,147.33,-42.88,,29,33,1.34,AU,1577671594.0,308.7
116,2132606,Samarai,150.67,-10.62,,60,47,3.58,PG,1577671663.0,303.39
117,2186111,Ngunguru,174.5,-35.62,,62,0,4.02,NZ,1577671664.0,297.59
118,3671450,Inirida,-67.92,3.87,,97,100,0.81,CO,1577671664.0,296.5
119,2180815,Tuatapere,167.69,-46.13,,78,57,7.6,NZ,1577671664.0,287.59
120,3899539,Antofagasta,-70.4,-23.65,,77,20,3.6,CL,1577671665.0,292.15
121,3347019,Namibe,12.15,-15.19,,88,100,3.64,AO,1577671586.0,295.82
122,775758,Zatoka,20.52,50.04,,85,95,0.5,PL,1577671665.0,269.64
123,3372472,Vila Franca do Campo,-25.43,37.72,,76,20,2.1,PT,1577671665.0,284.15
124,2092164,Lorengau,147.27,-2.02,,68,15,2.33,PG,1577671665.0,302.22
125,3388147,Sao Raimundo das Mangabeiras,-45.48,-7.02,,73,100,1.68,BR,1577671666.0,297.56
126,2646787,Holbeach,0.02,52.8,,100,5,4.1,GB,1577671666.0,277.1
127,2128975,Nemuro,145.57,43.32,,68,88,4.6,JP,1577671666.0,270.15
128,2641598,Newport,-3,51.59,,93,0,2.1,GB,1577671666.0,278.23
129,1848976,Wajima,136.9,37.4,,93,75,2.1,JP,1577671666.0,280.15
130,5469841,Grants,-107.85,35.15,,72,1,2.6,US,1577671667.0,265.15
131,6167817,Torbay,-52.73,47.66,,92,90,11.3,CA,1577671618.0,272.34
132,3899695,Ancud,-73.83,-41.87,,76,20,2.1,CL,1577671584.0,286.15
133,3382160,Cayenne,-52.33,4.94,,94,78,1.5,GF,1577671667.0,298.15
134,1734759,Melaka,102.26,2.19,,74,20,3.6,MY,1577671667.0,299.93
135,2112802,Hasaki,140.83,35.73,,93,75,2.6,JP,1577671311.0,278.23
136,3653967,Muisne,-80.02,0.61,,86,100,4.07,EC,1577671668.0,297.83
137,3347353,Menongue,17.68,-14.66,,98,100,1.52,AO,1577671668.0,290.67
138,4845585,Westport,-73.36,41.14,,86,90,4.6,US,1577671612.0,276.33
139,934322,Mahebourg,57.7,-20.41,,100,75,11.8,MU,1577671600.0,297.86
140,1015776,Bredasdorp,20.04,-34.53,,77,67,3.1,ZA,1577671591.0,291.69
141,5983720,Iqaluit,-68.52,63.75,,77,40,1,CA,1577671612.0,255.25
142,1805733,Jinchang,102.19,38.52,,54,3,2.01,CN,1577671670.0,264.43
143,1502192,Krapivinskiy,86.81,55,,92,90,4,RU,1577671670.0,261.15
144,556268,Ostrovnoy,39.51,68.05,,94,100,6.08,RU,1577671625.0,274.01
145,3366880,Hermanus,19.24,-34.42,,90,48,9.79,ZA,1577671580.0,291.3
146,4501427,Port Elizabeth,-74.98,39.31,,87,90,4.1,US,1577671671.0,282.06
147,1258449,Ranipur,79.06,25.25,,40,0,1.21,IN,1577671671.0,282.16
148,2427336,Moussoro,16.49,13.64,,22,96,4.31,TD,1577671671.0,290.14
149,3885509,Laja,-72.71,-37.28,,72,0,6.2,CL,1577671671.0,289.15
150,5106834,Albany,-73.75,42.65,,86,90,2.1,US,1577671523.0,273.59
151,3037899,Ambon,-2.56,47.55,,100,14,2.1,FR,1577671672.0,273.67
152,1609776,Khon Kaen,102.84,16.43,,73,0,1,TH,1577671672.0,295.15
153,3139597,Sistranda,8.83,63.73,,87,75,11.8,NO,1577671672.0,281.72
154,3369157,Cape Town,18.42,-33.93,,77,0,7.7,ZA,1577671300.0,292.15
155,1856392,Muroto,134.14,33.37,,93,75,5.1,JP,1577671673.0,285.15
156,4732862,Nome,-94.42,30.04,,58,1,5.1,US,1577671673.0,286.7
157,2036338,Kaitong,123.15,44.81,,81,100,2.94,CN,1577671673.0,254.05
158,1253628,Lata,78.62,30.78,,29,0,3.05,IN,1577671583.0,264.76
159,135298,Esfarayen,57.51,37.08,,80,90,1,IR,1577671674.0,275.15
160,2234359,Bertoua,13.68,4.58,,42,0,1.43,CM,1577671674.0,289.96
161,5960603,Geraldton,-86.95,49.72,,85,90,8.2,CA,1577671675.0,264.15
162,1487332,Verkhnyaya Inta,60.32,65.99,,74,99,9.08,RU,1577671675.0,260.35
163,3115824,Muros,-9.06,42.77,,87,0,1,ES,1577671616.0,283.06
164,3897774,Buin,-70.74,-33.73,,41,0,5.1,CL,1577671587.0,297.15
165,2169535,Dalby,151.26,-27.18,,39,99,5.1,AU,1577671675.0,302.24
166,2948164,Bitterfeld,12.33,51.62,,69,97,4.6,DE,1577671676.0,274.71
167,779622,Havoysund,24.66,71,,75,75,6.7,NO,1577671676.0,273.15
168,2160063,Codrington,153.24,-28.95,,42,98,3.6,AU,1577671676.0,301.47
169,6320062,Vila Velha,-38.6,-3.71,,74,40,5.1,BR,1577671676.0,301.54
170,1082243,Ambilobe,49.05,-13.19,,92,100,1.93,MG,1577671577.0,297.42
171,1280957,Jiuquan,98.49,39.73,,53,24,1.7,CN,1577671677.0,264.34
172,1623197,Tual,132.75,-5.67,,70,100,3.85,ID,1577671584.0,302.24
173,7626370,Bud,6.91,62.91,,70,90,18.5,NO,1577671677.0,280.72
174,6180550,Whitehorse,-135.06,60.72,,68,75,7.7,CA,1577671677.0,272.27
175,645765,Muhos,26,64.81,,86,49,8.7,FI,1577671678.0,276.11
176,3419842,Sisimiut,-53.67,66.94,,81,8,3.64,GL,1577671678.0,258.56
177,770966,Hrubieszow,23.89,50.8,,82,100,3.05,PL,1577671678.0,269.37
178,2177413,Ayr,147.4,-19.58,,60,0,5.66,AU,1577671404.0,303.71
179,2120612,Tigil,158.67,57.8,,70,0,1.08,RU,1577671679.0,255.91
180,2126199,Cherskiy,161.3,68.75,,100,4,1.53,RU,1577671599.0,235.95
181,4927537,Valparaiso,-87.06,41.47,,100,90,1.5,US,1577671680.0,284.58
182,6138908,Saint-Philippe,-73.48,45.36,,68,90,6.2,CA,1577671588.0,270.66
183,659936,Forssa,23.63,60.82,,100,90,5.1,FI,1577671680.0,277.54
184,3698359,Chicama,-79.15,-7.84,,83,90,3.1,PE,1577671683.0,294.15
185,3036965,Le Port,1.37,42.87,,58,2,1.34,FR,1577671683.0,274.33
186,87205,Darnah,22.64,32.77,,66,57,11.47,LY,1577671684.0,286.4
187,1106643,Quatre Cocos,57.76,-20.21,,100,75,11.8,MU,1577671684.0,297.89
188,217637,Businga,20.89,3.34,,42,47,0.56,CD,1577671684.0,292.6
189,1006984,East London,27.91,-33.02,,83,9,3.87,ZA,1577671401.0,294.37
190,1272864,Dharchula,80.53,29.85,,23,0,2.89,IN,1577671684.0,275.71
191,236901,Ouadda,22.4,8.07,,29,0,1.64,CF,1577671685.0,288.35
192,4031637,Lavrentiya,-170.99,65.58,,86,4,6.4,RU,1577671602.0,250.09
193,2189343,Kaeo,173.78,-35.1,,64,0,4.47,NZ,1577671686.0,298.71
194,4267710,Sitka,-99.65,37.17,,74,26,4.92,US,1577671597.0,273.15
195,2013279,Vostok,135.83,46.45,,91,99,2.24,RU,1577671686.0,263.45
196,3026644,Souillac,-0.6,45.6,,78,20,1,FR,1577671588.0,273.7
197,3938415,Ilo,-71.34,-17.65,,83,98,0.49,PE,1577671686.0,294.11
198,5720495,Coos Bay,-124.22,43.37,,100,90,2.6,US,1577671524.0,281.89
199,2037611,Dongning,131.12,44.06,,88,100,1.94,CN,1577671687.0,262.45
200,2966778,Ballina,-9.15,54.11,,89,100,2.68,IE,1577671687.0,283.0
201,4508778,Circleville,-82.95,39.6,,93,90,1.5,US,1577671687.0,285.84
202,1250161,Batticaloa,81.69,7.71,,75,68,0.65,LK,1577671687.0,299.01
203,5859699,College,-147.8,64.86,,77,90,2.22,US,1577671688.0,254.9
204,2090021,Namatanai,152.44,-3.66,,69,5,3.61,PG,1577671688.0,303.1
205,3447575,Palma,-53.58,-29.73,,74,75,7.7,BR,1577671688.0,300.15
206,2071860,Esperance,121.89,-33.86,,42,90,5.7,AU,1577671585.0,293.15
207,1862505,Hirara,125.28,24.8,,100,75,6.2,JP,1577671689.0,292.67
208,4385966,Excelsior Springs,-94.23,39.34,,74,90,6.7,US,1577671689.0,273.96
209,4791259,Virginia Beach,-75.98,36.85,,93,75,4.6,US,1577671133.0,290.25
210,3572375,Freeport,-78.7,26.54,,74,96,8,BS,1577671689.0,297.85
211,100926,Umm Lajj,37.27,25.02,,62,0,1.57,SA,1577671689.0,284.73
212,689307,Tselinnoye,34.18,45.9,,88,100,8.21,UA,1577671690.0,276.26
213,5640350,Billings,-108.5,45.79,,45,1,4.1,US,1577671375.0,268.25
214,3833883,Trelew,-65.31,-43.25,,40,74,5.4,AR,1577671690.0,293.8
215,2093967,Kimbe,150.15,-5.56,,60,89,2.15,PG,1577671690.0,304.52
216,4156404,Gainesville,-82.33,29.65,,100,75,2.6,US,1577671690.0,294.04
217,2022572,Khatanga,102.47,71.98,,97,42,2.89,RU,1577671614.0,237.28
218,4021858,Guerrero Negro,-114.04,27.97,,52,0,2.52,MX,1577671691.0,287.71
219,2035707,Mujiayingzi,118.78,42.12,,39,5,10.06,CN,1577671691.0,257.12
220,108410,Riyadh,46.72,24.63,,41,0,2.1,SA,1577671691.0,287.15
221,1215502,Banda Aceh,95.32,5.56,,70,1,2.77,ID,1577671691.0,301.39
222,780687,Berlevag,29.09,70.86,,71,100,7.18,NO,1577671692.0,273.95
223,2418092,Lola,-8.53,7.8,,35,0,0.68,GN,1577671692.0,292.6
224,2656067,Broome,1.45,52.47,,86,52,4.6,GB,1577671580.0,277.65
225,1688687,San Quintin,120.52,17.54,,55,0,1.87,PH,1577671603.0,301.38
226,3442778,Delta del Tigre,-56.41,-34.76,,73,100,5.1,UY,1577671693.0,297.44
227,2138592,Pouembout,164.9,-21.12,,50,71,2.07,NC,1577671693.0,301.6
228,565857,Dobrinka,40.48,52.17,,79,0,1.59,RU,1577671693.0,266.86
229,2082539,Merauke,140.4,-8.49,,61,82,4.01,ID,1577671693.0,304.89
230,2640377,Penzance,-5.53,50.12,,100,0,7.2,GB,1577671694.0,282.58
231,5606187,Saint Anthony,-111.68,43.97,,85,90,1.5,US,1577671694.0,265.06
232,3985710,Cabo San Lucas,-109.91,22.89,,68,5,1.5,MX,1577671589.0,289.84
233,3421193,Paamiut,-49.67,61.99,,72,0,2.47,GL,1577671694.0,267.79
234,3856548,La Asuncion,-65.39,-26.05,,91,100,1.2,AR,1577671695.0,291.29
235,5338166,Coachella,-116.18,33.68,,57,20,1.5,US,1577671695.0,278.98
236,3439781,Treinta y Tres,-54.39,-33.23,,89,100,2.62,UY,1577671695.0,294.08
237,3934608,Tucuman,-70.89,-17.17,,81,66,0.89,PE,1577671696.0,285.76
238,5509851,Pahrump,-115.98,36.21,,51,90,3.1,US,1577671696.0,277.99
239,2015179,Tommot,126.27,58.97,,95,100,0.39,RU,1577671696.0,239.79
240,6170031,Tuktoyaktuk,-133.03,69.44,,74,40,6.2,CA,1577671620.0,243.15
241,5961564,Glace Bay,-59.96,46.2,,73,90,6.2,CA,1577671678.0,269.19
242,3836669,San Rafael,-68.33,-34.61,,44,100,6.9,AR,1577671697.0,300.26
243,471329,Khlevnoye,39.32,54.57,,86,95,3.95,RU,1577671697.0,268.71
244,509176,Pizhma,47.12,57.86,,93,52,3.41,RU,1577671697.0,259.77
245,1214488,Meulaboh,96.13,4.14,,77,0,2.46,ID,1577671626.0,300.37
246,2339937,Auki,6.51,12.18,,20,0,4.42,NG,1577671698.0,288.6
247,2270385,Camacha,-16.33,33.08,,93,20,2.1,PT,1577671612.0,290.72
248,211098,Lubao,25.75,-5.39,,97,100,1.67,CD,1577671698.0,293.37
249,3377408,Linden,-58.31,6.01,,94,100,2.1,GY,1577671698.0,297.15
250,1792592,Tongren,109.18,27.72,,80,40,3.27,CN,1577671699.0,284.16
251,3694586,Morrope,-80.02,-6.54,,29,75,7.2,PE,1577671699.0,292.15
252,2036401,Jiutai,125.84,44.15,,70,40,2,CN,1577671699.0,252.15
253,3870011,Temuco,-72.59,-38.74,,76,0,1.07,CL,1577671699.0,285.37
254,6096551,Pangnirtung,-65.72,66.15,,93,100,1.12,CA,1577671699.0,254.61
255,3187694,Sibenik,17.18,45.81,,79,0,1.85,HR,1577671700.0,270.64
256,3466165,Cidreira,-50.22,-30.17,,89,0,10.39,BR,1577671700.0,297.09
257,2093846,Kiunga,141.3,-6.12,,61,2,1.5,PG,1577671700.0,305.06
258,2019135,Nizhniy Kuranakh,125.49,58.84,,95,100,0.4,RU,1577671700.0,239.75
259,1637001,Biak,122.88,-0.91,,72,87,1.74,ID,1577671701.0,301.44
260,5423092,Glenwood Springs,-107.33,39.55,,72,90,2.6,US,1577671701.0,261.1
261,1259385,Port Blair,92.75,11.67,,76,16,6.2,IN,1577671701.0,300.65
262,2063036,Port Lincoln,135.86,-34.72,,52,27,10.21,AU,1577671701.0,298.48
263,4982044,Waldoboro,-69.38,44.1,,63,90,4.1,US,1577671701.0,272.62
264,3172402,Nago,10.89,45.88,,100,8,0.5,IT,1577671702.0,272.51
265,2059470,Victor Harbor,138.62,-35.55,,14,36,10.3,AU,1577671702.0,311.81
266,1524325,Ekibastuz,75.32,51.72,,94,100,3.79,KZ,1577671703.0,264.47
267,2033196,Zhangjiakou,114.88,40.77,,75,22,9.49,CN,1577671703.0,251.35
268,4372777,Vardo,-77.74,39.62,,100,90,2.1,US,1577671703.0,281.32
269,3530948,Chichimila,-88.22,20.62,,99,21,1.2,MX,1577671446.0,295.39
270,2267254,Lagoa,-8.45,37.14,,81,0,4.1,PT,1577671703.0,284.06
271,546282,Kologriv,44.31,58.83,,91,100,4.86,RU,1577671704.0,264.11
272,1835848,Seoul,126.98,37.57,,69,90,0.5,KR,1577671033.0,278.38
273,546105,Nikolskoye,30.79,59.7,,94,90,4,RU,1577671594.0,273.47
274,2121385,Severo-Kurilsk,156.12,50.68,,92,100,5.25,RU,1577671598.0,269.81
275,2038067,Chifeng,118.96,42.27,,44,33,9.82,CN,1577671705.0,256.49
276,3176217,Bastia,8.98,44.6,,70,7,7.7,IT,1577671705.0,276.19
277,1281256,Gamba,88.52,28.28,,11,45,0.77,CN,1577671706.0,264.84
278,1861285,Itoigawa,137.87,37.02,,100,100,2.24,JP,1577671706.0,277.57
279,3421719,Narsaq,-46.05,60.91,,85,97,1.5,GL,1577671588.0,269.15
280,1052944,Angoche,39.91,-16.23,,94,49,2.47,MZ,1577671707.0,297.05
281,2335204,Kano,8.53,11.99,,54,0,1,NG,1577671707.0,285.15
282,218229,Bongandanga,21.07,1.51,,51,97,0.26,CD,1577671707.0,294.55
283,2167426,Emerald,148.16,-23.53,,38,40,4.6,AU,1577671707.0,304.48
284,540078,Kubachi,47.6,42.09,,50,50,1.05,RU,1577671708.0,269.62
285,2122262,Palana,159.95,59.08,,63,0,0.85,RU,1577671708.0,255.23
286,4465088,Elizabeth City,-76.22,36.3,,88,90,2.6,US,1577671708.0,290.38
287,2191562,Dunedin,170.5,-45.87,,62,95,4.92,NZ,1577671310.0,289.26
288,1865309,Katsuura,134.5,33.93,,93,75,4.6,JP,1577671601.0,284.77
289,544084,Koslan,48.9,63.46,,87,100,5.87,RU,1577671709.0,263.81
290,3386213,Touros,-35.46,-5.2,,69,75,6.7,BR,1577671709.0,300.15
291,2027296,Aykhal,111.51,65.95,,74,90,2,RU,1577671709.0,242.15
292,2172797,Cairns,145.77,-16.92,,70,75,4.6,AU,1577671709.0,302.56
293,3395981,Maceio,-35.74,-9.67,,83,100,1.5,BR,1577671595.0,298.15
294,6089245,Norman Wells,-126.83,65.28,,62,75,11.3,CA,1577671580.0,247.15
295,3397763,Jacareacanga,-57.76,-6.22,,95,100,0.5,BR,1577671710.0,296.9
296,1639304,Kualakapuas,114.39,-3.01,,58,1,0.43,ID,1577671626.0,307.05
297,2194098,Ahipara,173.16,-35.17,,70,7,0.89,NZ,1577671593.0,300.37
298,1026014,Tete,33.59,-16.16,,100,40,2.1,MZ,1577671711.0,297.15
299,1485724,Talaya,84.89,55.79,,77,90,4,RU,1577671711.0,256.15
300,315372,Erzincan,39.49,39.75,,80,90,2.1,TR,1577671711.0,277.15
301,4019098,Ahome,-109.18,25.92,,48,20,3.6,MX,1577671519.0,288.32
302,1497337,Kayerkan,87.76,69.35,,83,40,10,RU,1577671712.0,249.15
303,1529484,Hami,93.51,42.84,,27,0,1.44,CN,1577671712.0,268.12
304,6138501,Saint-Augustin,-73.98,45.63,,68,90,4.6,CA,1577671594.0,270.61
305,1525121,Borovskoy,64.15,53.8,,98,100,2.86,KZ,1577671713.0,251.17
306,5973108,Hearst,-83.67,49.69,,91,100,5.28,CA,1577671268.0,266.57
307,2177541,Atherton,145.48,-17.27,,70,75,4.6,AU,1577671713.0,302.64
308,3421982,Maniitsoq,-52.9,65.42,,68,61,2.7,GL,1577671620.0,266.12
309,5367788,Lompoc,-120.46,34.64,,76,40,3.1,US,1577671576.0,284.37
310,3520994,Puerto Escondido,-97.07,15.86,,74,75,2.6,MX,1577671714.0,300.15
311,2022773,Khandyga,135.58,62.65,,97,71,0.85,RU,1577671714.0,233.54
312,296852,Erzin,36.2,36.95,,93,75,5.7,TR,1577671715.0,282.96
313,3530097,Champerico,-93.6,16.38,,57,40,0.34,MX,1577671715.0,297.15
314,5880568,Bethel,-161.76,60.79,,68,1,7.7,US,1577671594.0,246.5
315,2121025,Srednekolymsk,153.71,67.46,,93,0,0.92,RU,1577671715.0,236.43
316,2737599,Saldanha,-6.55,41.42,,52,3,0.78,PT,1577671715.0,277.97
317,2015306,Tiksi,128.87,71.64,,82,100,5.64,RU,1577671587.0,244.3
318,72181,Marzuq,46.47,14.4,,66,64,0.71,YE,1577671716.0,285.29
319,3385908,Janauba,-45.47,-1.63,,83,100,2.12,BR,1577671716.0,299.28
320,934649,Cap Malheureux,57.61,-19.98,,100,75,11.8,MU,1577671717.0,297.93
321,544397,Kortkeros,51.56,61.81,,91,100,2,RU,1577671717.0,257.15
322,5563839,Fortuna,-124.16,40.6,,93,90,2.1,US,1577671608.0,281.79
323,3353383,Rundu,19.77,-17.91,,74,72,1.68,NA,1577671717.0,294.68
324,3035768,Avallon,3.91,47.49,,97,31,1.9,FR,1577671717.0,272.04
325,3868210,Vilcun,-72.23,-38.65,,76,0,0.56,CL,1577671718.0,285.37
326,4257880,Leopold,-86.58,38.1,,100,90,3.1,US,1577671718.0,285.75
327,6050066,La Ronge,-105.3,55.1,,92,75,2.1,CA,1577671617.0,266.15
328,2122493,Omsukchan,155.8,62.53,,36,0,0.4,RU,1577671718.0,243.1
329,1852357,Shimoda,138.93,34.7,,87,75,5.1,JP,1577671718.0,281.57
330,3470912,Bandeirantes,-50.37,-23.11,,75,44,2.54,BR,1577671719.0,296.72
331,2513562,Bajil,-2.07,38.23,,93,0,0.22,ES,1577671719.0,273.96
332,1337607,Kudahuvadhoo,72.89,2.67,,75,97,7.55,MV,1577671719.0,301.5
333,2638419,Scarborough,-0.41,54.28,,93,0,2.1,GB,1577671719.0,280.07
334,225835,Yumbe,31.25,3.47,,43,54,0.88,UG,1577671719.0,293.69
335,1106677,Bambous Virieux,57.76,-20.34,,100,75,11.8,MU,1577671618.0,297.87
336,2038665,Alihe,123.73,50.57,,76,0,2.25,CN,1577671720.0,248.52
337,1789789,Bianzhuang,112.12,39.44,,62,0,2.53,CN,1577671720.0,252.72
338,64814,Bandarbeyla,50.81,9.49,,83,21,5.78,SO,1577671721.0,299.09
339,2068110,Kununurra,128.74,-15.77,,50,94,3.1,AU,1577671721.0,308.15
340,5905393,Bonavista,-53.11,48.65,,89,99,6.71,CA,1577671721.0,272.59
341,6078372,Moose Factory,-80.61,51.26,,79,90,4.6,CA,1577671721.0,266.15
342,2120591,Tilichiki,166.1,60.47,,66,0,3.6,RU,1577671721.0,249.48
343,5369568,Madera,-120.06,36.96,,66,40,1.5,US,1577671722.0,281.25
344,2396518,Port-Gentil,8.78,-0.72,,78,100,4.34,GA,1577671617.0,301.03
345,1850144,Nishihara,139.53,35.74,,61,1,1.5,JP,1577671578.0,280.36
346,1252578,Gasa,89.73,27.91,,23,36,0.33,BT,1577671722.0,265.17
347,1506268,Gornopravdinsk,69.92,60.06,,93,0,2.15,RU,1577671722.0,251.82
348,2520058,Cartagena,-1,37.63,,100,75,2.1,ES,1577671723.0,282.24
349,1863310,Hamada,132.08,34.9,,87,75,4.6,JP,1577671723.0,285.64
350,1510689,Baykit,96.39,61.68,,98,84,1.07,RU,1577671723.0,242.7
351,4565090,Guanica,-66.91,17.97,,84,40,1.5,PR,1577671724.0,296.45
352,146639,Lasa,32.53,34.92,,63,75,8.7,CY,1577671724.0,289.09
353,3995236,Mulege,-111.98,26.88,,49,0,5.45,MX,1577671724.0,287.33
354,1848373,Fukue,136.69,35.03,,87,75,4.6,JP,1577671724.0,281.41
355,3894426,Coihaique,-72.07,-45.58,,36,45,3.6,CL,1577671608.0,291.15
356,1816234,Bozhou,115.78,33.86,,54,0,7.22,CN,1577671449.0,279.71
357,3162970,Ardalstangen,7.7,61.24,,81,100,3.55,NO,1577671725.0,276.48
358,3994534,Ocampo,-102.4,27.32,,39,0,0.28,MX,1577671725.0,280.69
359,3521972,Panaba,-88.27,21.28,,93,45,2.88,MX,1577671726.0,296.51
360,2630299,Hofn,-15.21,64.25,,95,100,7.51,IS,1577671594.0,275.88
361,2221046,Madimba,9.93,4.42,,100,40,0.65,CM,1577671726.0,298.15
362,2122389,Ossora,163.07,59.24,,42,0,0.99,RU,1577671726.0,256.8
363,986717,Kruisfontein,24.73,-34,,98,86,0.42,ZA,1577671727.0,290.46
364,898947,Senanga,23.3,-16.1,,89,55,1.55,ZM,1577671727.0,293.38
365,3526662,Teya,-89.07,21.05,,88,20,2.15,MX,1577671727.0,297.15
366,3355672,Luderitz,15.16,-26.65,,90,33,8.76,NA,1577671576.0,289.38
367,610298,Beyneu,55.19,45.32,,76,96,1.24,KZ,1577671728.0,272.19
368,2176639,Batemans Bay,150.18,-35.71,,75,0,2.33,AU,1577671728.0,302.11
369,876177,Luau,22.23,-10.7,,98,100,1.68,CD,1577671728.0,291.93
370,3685223,Dibulla,-73.31,11.27,,79,74,8.11,CO,1577671574.0,300.07
371,737021,Zonguldak,31.83,41.25,,95,97,0.94,TR,1577671728.0,272.09
372,3407980,Alenquer,-54.74,-1.95,,88,92,2.1,BR,1577671729.0,298.15
373,3581398,Laguna,-88.94,16.17,,98,8,0.52,BZ,1577671729.0,294.86
374,2123814,Leningradskiy,178.42,69.38,,92,100,11.73,RU,1577671590.0,244.59
375,1578500,Kon Tum,108,14.36,,55,0,2.05,VN,1577671730.0,300.03
376,2278158,Buchanan,-10.05,5.88,,94,40,0.79,LR,1577671608.0,299.15
377,2063042,Port Hedland,118.58,-20.31,,63,75,5.1,AU,1577671579.0,306.15
378,2071059,Gawler,138.75,-34.6,,14,96,10.3,AU,1577671730.0,312.24
379,2020838,Lensk,114.91,60.71,,81,100,2.12,RU,1577671730.0,249.22
380,3676604,Rosarito,-75.23,4.91,,83,20,2.1,CO,1577671731.0,297.14
381,1733697,Semporna,118.61,4.48,,88,75,2.1,MY,1577671731.0,300.15
382,5919850,Chapais,-74.86,49.78,,85,40,1.5,CA,1577671731.0,262.15
383,1651810,Airai,125.41,-8.93,,77,99,1.98,TL,1577671731.0,298.07
384,2126785,Belaya Gora,146.19,68.54,,75,0,2.16,RU,1577671732.0,237.98
385,540761,Kropotkin,40.58,45.43,,80,100,6.73,RU,1577671732.0,275.93
386,1642773,Japura,102.29,-0.42,,72,97,1.67,ID,1577671587.0,301.87
387,1263751,Mangrol,76.51,25.33,,36,0,1.56,IN,1577671732.0,282.26
388,4034551,Faanui,-151.75,-16.48,,76,100,5.47,PF,1577671593.0,300.78
389,1791636,Weinan,109.46,34.5,,47,94,5,CN,1577671733.0,277.24
390,878549,Zvishavane,30.05,-20.32,,78,90,0.96,ZW,1577671733.0,290.81
391,1856057,Nakamura,136.87,35.17,,87,75,4.6,JP,1577671733.0,281.37
392,2158767,Mareeba,145.42,-16.99,,70,75,4.6,AU,1577671733.0,302.62
393,2152659,Port Macquarie,152.91,-31.43,,26,0,8.2,AU,1577671734.0,304.92
394,3423146,Ilulissat,-51.1,69.22,,72,61,5.7,GL,1577671616.0,265.15
395,3571913,Marsh Harbour,-77.06,26.54,,72,67,5.89,BS,1577671514.0,297.15
396,2173911,Broken Hill,141.45,-31.97,,10,33,8.7,AU,1577671617.0,313.15
397,5294810,Flagstaff,-111.65,35.2,,73,90,2.1,US,1577671573.0,268.52
398,4036284,Alofi,-169.92,-19.06,,83,75,6.2,NU,1577671619.0,301.15
399,1510998,Balakhta,91.62,55.38,,87,100,1.28,RU,1577671735.0,255.01
400,3991347,Puerto Penasco,-113.53,31.32,,47,67,0.45,MX,1577671735.0,284.26
401,1625929,Sungaipenuh,101.38,-2.08,,78,73,1.08,ID,1577671626.0,296.77
402,3838859,Rio Gallegos,-69.22,-51.62,,58,75,4.1,AR,1577671678.0,287.15
403,1625812,Batan,110.71,-7.54,,83,20,0.89,ID,1577671736.0,301.96
404,3386177,Trairi,-39.27,-3.28,,87,86,1.43,BR,1577671538.0,297.33
405,1083239,Ambatofinandrahana,46.8,-20.55,,83,84,1.21,MG,1577671736.0,291.08
406,3816362,Benemerito de las Americas,-90.64,16.52,,90,0,0.4,MX,1577671737.0,295.53
407,3896218,Castro,-73.76,-42.48,,76,20,2.1,CL,1577671585.0,286.15
408,1024312,Mocuba,36.99,-16.84,,97,99,0.73,MZ,1577671737.0,296.26
409,2192362,Christchurch,172.64,-43.53,,72,100,2.6,NZ,1577671533.0,289.65
410,3461370,Imbituba,-48.67,-28.24,,83,20,5.1,BR,1577671737.0,299.15
411,6065592,Maple Creek,-109.46,49.91,,62,100,0.92,CA,1577671738.0,267.96
412,4088628,Saraland,-88.07,30.82,,94,90,6.2,US,1577671738.0,294.25
413,2025241,Churapcha,132.43,62,,96,97,1.04,RU,1577671738.0,235.61
414,57000,Hobyo,48.53,5.35,,84,12,4.44,SO,1577671739.0,297.54
415,2225940,Yatou,9.81,3.63,,100,40,0.47,CM,1577671739.0,298.15
416,3696372,Huari,-77.17,-9.35,,89,100,1.54,PE,1577671739.0,280.57
417,590447,Tondi,24.72,59.41,,100,90,6.7,EE,1577671739.0,277.63
418,2037485,Erenhot,111.97,43.65,,78,84,5.24,CN,1577671740.0,253.33
419,2077895,Alice Springs,133.88,-23.7,,19,53,3.1,AU,1577671740.0,311.15
420,1648759,Bima,118.73,-8.45,,56,87,0.9,ID,1577671740.0,305.94
421,3145614,Mo i Rana,14.15,66.32,,99,98,4.94,NO,1577671740.0,273.23
422,2548885,Fez,-5.02,34.03,,80,0,4.1,MA,1577671740.0,278.15
423,1039536,Maxixe,35.35,-23.86,,84,37,2.92,MZ,1577671622.0,297.83
424,4562996,Cabo Rojo,-67.15,18.09,,84,40,1.5,PR,1577671741.0,296.45
425,779330,Kautokeino,23.04,69.01,,97,100,4.45,NO,1577671741.0,270.78
426,3906466,Riberalta,-66.08,-11,,98,100,0.8,BO,1577671741.0,295.71
427,1496511,Novyy Urengoy,76.63,66.08,,91,98,6.25,RU,1577671742.0,262.63
428,2619537,Hvide Sande,8.13,56.01,,87,100,6.2,DK,1577671742.0,281.31
429,3164565,Vila,8.4,45.18,,100,75,5.1,IT,1577671742.0,274.88
430,1808106,Hongjiang,109.83,27.21,,88,90,2.15,CN,1577671742.0,283.86
431,5961417,Husavik,-96.99,50.56,,94,100,3.58,CA,1577671603.0,262.29
432,6325494,Quebec,-71.24,46.83,,62,90,2.1,CA,1577671617.0,268.67
433,779261,Kjollefjord,27.35,70.95,,79,100,5.24,NO,1577671743.0,271.08
434,3372760,Praia da Vitoria,-27.07,38.73,,93,3,4.03,PT,1577671743.0,282.15
435,3412093,Vestmannaeyjar,-20.27,63.44,,72,0,8.08,IS,1577671744.0,278.08
436,3932145,Pisco,-76.2,-13.71,,94,68,7.7,PE,1577671744.0,294.2
437,4089114,Selma,-87.02,32.41,,83,100,5.7,US,1577671744.0,294.25
438,6145890,Shelburne,-80.2,44.08,,98,90,3.1,CA,1577671744.0,273.02
439,97783,Bayji,43.49,34.93,,61,97,2.56,IQ,1577671744.0,284.62
440,1488167,Ust-Koksa,85.62,50.27,,81,100,3.67,RU,1577671745.0,264.46
441,535839,Leshukonskoye,45.76,64.9,,90,100,6.23,RU,1577671745.0,266.29
442,698921,Novi Troyany,28.86,45.94,,84,100,6.85,UA,1577671745.0,273.72
443,5861897,Fairbanks,-147.72,64.84,,77,90,1.94,US,1577671605.0,255.31
444,6620339,Karratha,116.85,-20.74,,87,1,4.63,AU,1577671745.0,302.27
445,3460087,Jardim,-56.15,-21.48,,83,63,1.25,BR,1577671746.0,297.51
446,6255012,Flinders,150.85,-34.58,,38,33,3.1,AU,1577671746.0,299.24
447,110690,Faya,42.45,18.39,,70,96,2.6,SA,1577671746.0,283.19
448,107304,Buraydah,43.97,26.33,,58,0,3.6,SA,1577671746.0,286.15
449,3454005,Piacabucu,-36.43,-10.41,,84,47,2.96,BR,1577671622.0,298.1
450,1650434,Bambanglipuro,110.28,-7.95,,66,51,1.29,ID,1577671747.0,303.74
451,580584,Askarovo,58.51,53.34,,84,90,1,RU,1577671747.0,258.15
452,3416888,Grindavik,-22.43,63.84,,86,0,4.1,IS,1577671609.0,274.75
453,2295021,Sunyani,-2.33,7.34,,47,36,1.02,GH,1577671747.0,293.96
454,5314245,Show Low,-110.03,34.25,,78,1,2.71,US,1577671748.0,263.35
455,3451138,Rio Grande,-52.1,-32.03,,90,12,2.96,BR,1577671545.0,296.48
456,1510377,Belyy Yar,91.39,53.6,,69,100,1.17,RU,1577671748.0,248.15
457,551948,Kashirskoye,39.61,51.42,,85,90,2,RU,1577671748.0,267.15
458,885800,Mount Darwin,31.58,-16.77,,98,50,0.76,ZW,1577671748.0,290.73
459,5851349,Nanakuli,-158.15,21.39,,69,1,7.2,US,1577671749.0,300.07
460,4033356,Tiarei,-149.33,-17.53,,70,40,7.7,PF,1577671681.0,303.15
461,2175819,Biloela,150.51,-24.4,,22,19,2.05,AU,1577671749.0,305.93
462,2027933,Aleksandrovskiy Zavod,117.94,50.92,,86,0,1.05,RU,1577671749.0,245.92
463,127349,Khorramabad,48.35,33.48,,62,77,1.17,IR,1577671750.0,274.83
464,4859343,Grinnell,-92.72,41.74,,74,90,8.2,US,1577671750.0,273.67
465,3465342,Corumba,-57.65,-19,,63,97,0.64,BR,1577671750.0,300.24
466,2455290,Kidal,1.41,18.44,,18,0,5.09,ML,1577671750.0,287.95
467,2078025,Peterhead,138.5,-34.83,,14,52,10.3,AU,1577671750.0,312.24
468,1805270,Jishou,109.7,28.26,,87,65,1.23,CN,1577671751.0,282.13
469,3667983,Las Palmas,-75.33,9.27,,83,100,1.34,CO,1577671751.0,298.92
470,5554428,Ketchikan,-131.65,55.34,,93,90,8.7,US,1577671474.0,280.67
471,1526384,Boralday,76.86,43.36,,99,90,2,KZ,1577671751.0,275.15
472,5954718,Flin Flon,-101.88,54.77,,93,100,1.72,CA,1577671751.0,264.47
473,103630,Najran,44.22,17.54,,50,59,2.1,SA,1577671752.0,285.15
474,1071296,Antalaha,50.28,-14.9,,74,92,2.99,MG,1577671752.0,299.33
475,1502063,Krasnoturansk,91.57,54.32,,69,100,2,RU,1577671752.0,248.15
476,778707,Mehamn,27.85,71.03,,79,97,5.29,NO,1577671752.0,271.19
477,2125693,Evensk,159.24,61.92,,39,0,2.1,RU,1577671752.0,250.59
478,3395458,Maragogi,-35.22,-9.01,,77,100,5.81,BR,1577671753.0,299.49
479,1168700,Ormara,64.64,25.21,,65,0,3.15,PK,1577671753.0,294.43
480,1267390,Kavaratti,72.64,10.57,,69,98,1.3,IN,1577671753.0,301.28
481,5528182,Barstow,-103.39,31.46,,35,1,5.1,US,1577671753.0,279.17
482,1633034,Palu,119.87,-0.9,,65,57,1.35,ID,1577671753.0,301.51
483,6690297,Saint-Leu,55.28,-21.15,,88,100,8.7,RE,1577671754.0,296.55
484,2015701,Taksimo,114.84,56.36,,89,68,0.52,RU,1577671754.0,240.16
485,3839307,Rawson,-65.11,-43.3,,69,67,1.25,AR,1577671466.0,290.69
486,2303611,Axim,-2.24,4.87,,90,4,0.84,GH,1577671755.0,298.23
487,5735238,Klamath Falls,-121.78,42.22,,98,90,0.53,US,1577671706.0,274.68
488,2281951,Sassandra,-6.09,4.95,,92,1,1.97,CI,1577671756.0,298.41
489,5970873,Hare Bay,-53.99,48.86,,92,90,7.7,CA,1577671756.0,269.96
490,3038789,Abbeville,1.83,50.11,,66,31,3.1,FR,1577671756.0,273.53
491,2316748,Bolobo,16.23,-2.17,,80,97,1.31,CD,1577671756.0,296.14
492,6111862,Port Hardy,-127.42,50.7,,100,90,0.54,CA,1577671756.0,279.15
493,2512186,Puerto del Rosario,-13.86,28.5,,67,73,3.1,ES,1577671729.0,290.71
494,2340451,Gombe,11.16,10.28,,25,100,3.43,NG,1577671757.0,288.73
495,2297810,Mumford,-0.76,5.26,,90,0,0.7,GH,1577671757.0,297.37
496,2013639,Verkhnevilyuysk,120.31,63.45,,96,100,2.55,RU,1577671757.0,245.72
497,1850708,Tanabe,135.39,33.73,,93,75,5.7,JP,1577671757.0,285.59
498,3421765,Nanortalik,-45.24,60.14,,67,96,4.12,GL,1577671581.0,270.46
499,523392,Naryan-Mar,53.09,67.67,,88,100,11.19,RU,1577671758.0,266.03
500,3466779,Cascavel,-53.44,-24.96,,70,0,0.67,BR,1577671758.0,294.76
501,3388456,Sao Jose da Coroa Grande,-35.15,-8.9,,77,100,5.81,BR,1577671758.0,299.49
502,1815059,Chenzhou,113.03,25.81,,70,68,2.97,CN,1577671759.0,288.27
503,3149492,Korgen,13.83,66.08,,99,100,2.6,NO,1577671759.0,274.72
504,3576994,Cockburn Town,-71.14,21.46,,73,35,8.99,TC,1577671759.0,299.04
505,4985180,Bay City,-83.89,43.59,,93,90,3.1,US,1577671759.0,279.16
506,4165869,New Port Richey,-82.72,28.24,,88,1,2.6,US,1577671633.0,296.01
507,2395317,Banikoara,2.44,11.3,,17,0,2.09,BJ,1577671760.0,291.06
508,5972762,Hay River,-115.79,60.82,,75,75,3.68,CA,1577671626.0,247.15
509,2084442,Vanimo,141.3,-2.67,,72,100,4.13,PG,1577671760.0,301.69
510,6324729,Halifax,-63.58,44.65,,68,90,5.1,CA,1577671540.0,270.9
511,552256,Karpogory,44.44,64,,89,100,6.04,RU,1577671761.0,265.91
512,2510573,Teguise,-13.56,29.06,,69,94,4.1,ES,1577671761.0,291.15
513,2451185,Sikasso,-5.68,11.32,,24,0,0.86,ML,1577671761.0,290.43
514,2122104,Petropavlovsk-Kamchatskiy,158.65,53.05,,61,100,4,RU,1577671761.0,263.15
515,3407903,Almeirim,-52.58,-1.53,,95,100,1.57,BR,1577671762.0,297.02
516,3465329,Coruripe,-36.18,-10.12,,79,100,4.78,BR,1577671762.0,298.86
517,2150163,Sawtell,153.1,-30.38,,54,0,11.3,AU,1577671762.0,302.03
518,2843636,Rottweil,8.63,48.17,,81,0,0.23,DE,1577671762.0,269.73
519,3351014,Camacupa,17.48,-12.02,,96,100,1.23,AO,1577671762.0,288.92
520,1624725,Tarakan,117.63,3.3,,94,40,3.1,ID,1577671763.0,300.15
521,6355222,Yulara,130.99,-25.24,,30,0,5.7,AU,1577671763.0,308.15
522,6127749,Rosetown,-107.99,51.55,,83,100,2.92,CA,1577671763.0,264.26
523,2021017,Kysyl-Syr,122.77,63.9,,95,99,2.5,RU,1577671764.0,239.73
524,3868633,Vallenar,-70.76,-28.58,,90,9,0.5,CL,1577671764.0,287.09
525,5248511,Chippewa Falls,-91.39,44.94,,100,90,1.5,US,1577671503.0,276.01
526,3451100,Rio Pardo de Minas,-42.55,-15.62,,95,0,1.89,BR,1577671764.0,289.94
527,1270598,Guskhara,87.75,23.5,,81,40,4.1,IN,1577671764.0,285.15
528,3456450,Laje,-39.42,-13.18,,93,66,2.01,BR,1577671765.0,293.95
529,1847947,Shingu,135.99,33.72,,93,75,5.7,JP,1577671765.0,287.15
530,2012956,Yerbogachen,108.01,61.28,,95,100,4.4,RU,1577671765.0,248.33
531,527579,Mendeleyevsk,52.31,55.89,,91,0,2,RU,1577671765.0,254.15
532,2126710,Beringovskiy,179.32,63.05,,88,0,10.16,RU,1577671766.0,250.19
533,6301965,Palmerston,130.99,-12.49,,83,90,5.1,AU,1577671766.0,300.15
534,2015217,Tokur,132.9,53.13,,89,88,0.53,RU,1577671766.0,246.73
535,2377450,Nouakchott,-15.98,18.08,,16,100,3.6,MR,1577671766.0,290.15
536,2171040,Coleraine,141.69,-37.6,,12,47,10.95,AU,1577671767.0,314.24
537,1804540,Langfang,116.7,39.51,,23,0,8,CN,1577671767.0,266.14
538,7671223,Kloulklubed,134.26,7.04,,74,75,6.7,PW,1577671767.0,302.15
539,3659139,Melilla,-80.23,-0.8,,88,75,4.6,EC,1577671767.0,298.15
540,3460214,Jaguariaiva,-49.71,-24.25,,95,51,1.34,BR,1577671767.0,295.93
541,921900,Dzaoudzi,45.27,-12.79,,94,100,2.6,YT,1577671768.0,298.15
542,204953,Tshikapa,20.79,-6.42,,97,100,0.36,CD,1577671768.0,292.81
543,5237056,Hinesburg,-73.11,44.33,,74,90,2.1,US,1577671525.0,272.27
544,2289049,Ferkessedougou,-5.2,9.6,,22,0,2.49,CI,1577671768.0,294.16
545,5585000,Harer,-111.17,42.19,,85,75,4.1,US,1577671769.0,263.18
546,2513324,Navalmoral de la Mata,-5.54,39.89,,60,0,1.57,ES,1577671769.0,278.71
547,2017912,Plastun,136.29,44.76,,80,100,1.46,RU,1577671769.0,273.32
548,3867427,Mayor Pablo Lagerenza,-60.77,-19.93,,66,70,2.22,PY,1577671769.0,299.74
549,1926055,Ozu,132.54,33.51,,93,75,1.5,JP,1577671770.0,284.95
550,3184575,Dukat,19.57,40.25,,30,100,0.45,AL,1577671770.0,278.71
551,1154689,Ko Samui,99.94,9.54,,74,20,3.6,TH,1577671509.0,301.15
552,2120048,Ust-Nera,143.24,64.57,,100,97,1.03,RU,1577671770.0,235.9
553,3893629,Coquimbo,-71.34,-29.95,,87,20,2.6,CL,1577671770.0,288.15
554,2337542,Naze,7.07,5.43,,82,41,0.7,NG,1577671771.0,294.29
555,5387494,Ridgecrest,-117.67,35.62,,70,20,0.87,US,1577671771.0,279.02
556,2030065,Mandalgovi,106.27,45.76,,72,0,4.18,MN,1577671771.0,248.22
557,609906,Fort-Shevchenko,50.26,44.51,,89,6,4.55,KZ,1577671771.0,273.81
558,6113406,Prince Rupert,-130.32,54.32,,87,1,3.6,CA,1577671772.0,279.15
559,60019,Eyl,49.82,7.98,,81,26,6.94,SO,1577671772.0,299.05
560,2120400,Tungor,142.95,53.39,,82,51,3.62,RU,1577671772.0,254.07
561,2057087,Kupang,123.6,-10.16,,74,20,1.5,ID,1577671773.0,302.15
